[
  {
    "id": "coachella",
    "name": "Coachella Valley Music and Arts Festival",
    "city": "Indio",
    "state": "CA",
    "country": "USA",
    "startDate": "2026-04-10",
    "endDate": "2026-04-19",
    "genres": ["Pop", "EDM", "Hip-Hop", "Indie"],
    "venue": "Empire Polo Club",
    "coordinates": { "lat": 33.6784, "lng": -116.2377 },
    "ticketUrl": "https://www.coachella.com",
    "officialUrl": "https://www.coachella.com",
    "hasCamping": true,
    "cityGuideVenueKey": "Empire Polo Club"
  },
  {
    "id": "edc-las-vegas",
    "name": "EDC Las Vegas",
    "city": "Las Vegas",
    "state": "NV",
    "country": "USA",
    "startDate": "2026-05-15",
    "endDate": "2026-05-17",
    "genres": ["EDM"],
    "venue": "Las Vegas Motor Speedway",
    "coordinates": { "lat": 36.2723, "lng": -115.0107 },
    "ticketUrl": "https://lasvegas.electricdaisycarnival.com",
    "officialUrl": "https://lasvegas.electricdaisycarnival.com",
    "hasCamping": true,
    "cityGuideVenueKey": "Las Vegas Motor Speedway"
  },
  {
    "id": "ultra-miami",
    "name": "Ultra Music Festival",
    "city": "Miami",
    "state": "FL",
    "country": "USA",
    "startDate": "2026-03-27",
    "endDate": "2026-03-29",
    "genres": ["EDM"],
    "venue": "Bayfront Park",
    "coordinates": { "lat": 25.7743, "lng": -80.1854 },
    "ticketUrl": "https://ultramusicfestival.com",
    "officialUrl": "https://ultramusicfestival.com",
    "hasCamping": false,
    "cityGuideVenueKey": "Bayfront Park"
  },
  {
    "id": "lollapalooza",
    "name": "Lollapalooza",
    "city": "Chicago",
    "state": "IL",
    "country": "USA",
    "startDate": "2026-07-30",
    "endDate": "2026-08-02",
    "genres": ["Pop", "Hip-Hop", "Rock", "Indie", "EDM"],
    "venue": "Grant Park",
    "coordinates": { "lat": 41.8763, "lng": -87.6190 },
    "ticketUrl": "https://www.lollapalooza.com",
    "officialUrl": "https://www.lollapalooza.com",
    "hasCamping": false,
    "cityGuideVenueKey": "Grant Park"
  },
  {
    "id": "acl",
    "name": "Austin City Limits Music Festival",
    "city": "Austin",
    "state": "TX",
    "country": "USA",
    "startDate": "2026-10-02",
    "endDate": "2026-10-11",
    "genres": ["Rock", "Indie", "Pop", "Country"],
    "venue": "Zilker Park",
    "coordinates": { "lat": 30.2667, "lng": -97.7729 },
    "ticketUrl": "https://www.aclfestival.com",
    "officialUrl": "https://www.aclfestival.com",
    "hasCamping": false,
    "cityGuideVenueKey": "Zilker Park"
  }
]
